[
  {
    "name": "Beachwood Brewing",
    "active": true,
    "instaHandle": "beachwoodbrewing/",
    "orderUrl": "http://beachwoodbrewing.com/",
    "phone": "562-436-4020",
    "address": "210 East 3rd St.",
    "city": "Long Beach",
    "state": "CA",
    "zip": 90802,
    "hours": "",
    "days": "tuesday-sunday",
    "notes": "Order online for easy pickup. Open tuesday through sunday from 12pm-5pm. "
  },
  {
    "name": "Brouwerij West ",
    "active": true,
    "instaHandle": "brouwerijwest/",
    "orderUrl": "https://www.brouwerijwest.com/shop",
    "phone": "310-833-9330",
    "address": "110 East 22nd St.",
    "city": "San Pedro",
    "state": "CA",
    "zip": 90731,
    "hours": "12-7pm",
    "days": "Daily",
    "notes": "Order online for easy pickup. Open everyday from 12pm-7pm."
  },
  {
    "name": "Smog City",
    "active": true,
    "instaHandle": "smogcitybeer/",
    "orderUrl": "https://smogcitybrewing.com/collections/beer-delivery-or-taproom-pick-up",
    "phone": "310-320-7664",
    "address": "1901 Del Amo Blvd.",
    "city": "Torrance",
    "state": "CA",
    "zip": 90501,
    "hours": "12pm-8pm",
    "days": "Daily",
    "notes": "Home delivery Availble. Open from 12-8pm for pickup."
  },
  {
    "name": "Monkish",
    "active": true,
    "instaHandle": "monkishbrewing/",
    "orderUrl": "https://www.monkishbrewing.com/",
    "phone": "",
    "address": "20311 S Western Ave",
    "city": "Torrance",
    "state": "CA",
    "zip": 90501,
    "hours": "*varies",
    "days": "*varies",
    "notes": "Check the website for hours."
  },
  {
    "name": "LBBeerLab",
    "active": true,
    "instaHandle": "lbbeer/",
    "orderUrl": "https://store.lbbeer.com/",
    "phone": "",
    "address": "518 Willow St.",
    "city": "Long Beach",
    "state": "CA",
    "zip": 90806,
    "hours": "*varies",
    "days": "Daily",
    "notes": "Order online for pickup. Also offering sourdough and other goodies."
  },
  {
    "name": "El Segundo Brewing Co.",
    "active": true,
    "instaHandle": "esbcbrews/",
    "orderUrl": "https://el-segundo-brewing.myshopify.com/",
    "phone": "",
    "address": "140 Main St",
    "city": "El Segundo ",
    "state": "CA",
    "zip": 90245,
    "hours": "*varies",
    "days": "Daily",
    "notes": "Order online for next day pickup. "
  }
]